,Name,lon,lat,CEAZAMAR,REGION
0,CALETA_PAN_DE_AZUCAR,-70.66161881051038,-26.14159369144967,True,ATACAMA
1,CHAÑARAL_ATACAMA,-70.63337086412646,-26.35182723271105,True,ATACAMA
2,FLAMENCO,-70.68507906524016,-26.57367679549776,True,ATACAMA
3,OBISPITO,-70.74531364654213,-26.76240213231395,True,ATACAMA
4,ZENTENO,-70.81014980825168,-26.85358802202211,True,ATACAMA
5,CALDERA,-70.82386887866794,-27.06393990708378,True,ATACAMA
6,CALETA_EL_CISNE,-70.9606655537541,-27.24818073398019,True,ATACAMA
7,PUERTO_VIEJO,-70.94122889919026,-27.33487415220001,True,ATACAMA
8,BARRANQUILLA,-70.89373888888889,-27.51374166666668,True,ATACAMA
9,CALETA_MALDONADO,-70.90615964964685,-27.62722413498186,True,ATACAMA
10,PAJONALES,-71.03807736324123,-27.73484646185641,True,ATACAMA
11,TOTORAL_BAJO,-71.08819498309863,-27.83033122612628,True,ATACAMA
12,CARRIZAL_BAJO,-71.14955314674847,-28.07988191808775,True,ATACAMA
13,LOS_POZOS,-71.16541696979722,-28.16472573525106,True,ATACAMA
14,ANGOSTA,-71.170821254338,-28.2605817931847,True,ATACAMA
15,HUASCO,-71.22405530805918,-28.46087220099102,True,ATACAMA
16,LOS_BRONCES,-71.28450061076902,-28.64296294586967,True,ATACAMA
17,LOS_BURROS_SUR,-71.51451111108318,-28.91492222173793,True,ATACAMA
18,AGUA_DE_ZORRA,-71.50539999980047,-28.94270277805744,True,ATACAMA
19,ISLA_CHAÑARAL_DE_ACEITUNO,-71.5782,-29.034,True,ATACAMA
20,CARRIZALILLO,-71.4672586335834,-29.11387496028149,True,ATACAMA
21,APOLILLADO,-71.4917157134245,-29.1809908765307,True,COQUIMBO
22,PUNTA_DE_CHOROS_SAN_AGUSTIN,-71.46839447516044,-29.2465341406962,True,COQUIMBO
23,PUNTA_CHOROS_LOS_CORRALES,-71.46265542211123,-29.25037120978805,True,COQUIMBO
24,LOS_CHOROS,-71.35851388998262,-29.30996021887323,True,COQUIMBO
25,CHUNGUNGO,-71.30927840767387,-29.45080531608909,True,COQUIMBO
26,TOTORALILLO_NORTE,-71.32731982807847,-29.49216017682297,True,COQUIMBO
27,HORNOS,-71.28865168610592,-29.62255799771729,True,COQUIMBO
28,SAN_PEDRO_LA_SERENA,-71.27379522373269,-29.88054962630108,True,COQUIMBO
29,PEÑUELAS,-71.30091675282691,-29.95276238115324,True,COQUIMBO
30,COQUIMBO,-71.33496258426624,-29.95568780891534,True,COQUIMBO
31,GUAYACAN,-71.35058202058343,-29.9674489879659,True,COQUIMBO
32,PLAYA_CHICA_LA_HERRADURA,-71.36349742598722,-29.9842192921656,True,COQUIMBO
33,TOTORALILLO_CENTRO,-71.37744346667508,-30.07325362377046,True,COQUIMBO
34,GUANAQUEROS,-71.43113426118317,-30.19436472216073,True,COQUIMBO
35,PUNTA_LENGUA_DE_VACA,-71.655,-30.255,True,COQUIMBO
36,TONGOY,-71.49985264043625,-30.25582913748926,True,COQUIMBO
37,PUERTO_ALDEA,-71.60884317280066,-30.29221460070394,True,COQUIMBO
38,EL_TOTORAL,-71.67050150667502,-30.36724700966776,True,COQUIMBO
39,SITIO_COSMOS,-71.816,-30.401,False,COQUIMBO
40,TALCARUCA,-71.69672321221529,-30.47607497047192,True,COQUIMBO
41,LIMARI,-71.70022500350441,-30.7351753141062,True,COQUIMBO
42,TALQUILLA,-71.68153884816665,-30.87795353987962,True,COQUIMBO
43,TALCA,-71.67469679203,-30.92882583331974,True,COQUIMBO
44,COQUIMBO_AGUASABIERTAS,-73.0,-31.0,False,COQUIMBO
45,LA_CEBADA,-71.65054458711799,-31.01670959832853,True,COQUIMBO
46,SIERRA,-71.66272998184029,-31.14591075078373,True,COQUIMBO
47,MAITENCILLOCOQUIMBO,-71.63192786776858,-31.26381117755601,True,COQUIMBO
48,PUERTO_OSCURO,-71.59322705834747,-31.42339349282475,True,COQUIMBO
49,PUERTO_MANSO,-71.5697588437041,-31.51141939013629,True,COQUIMBO
50,HUENTELAUQUEN,-71.55758313984455,-31.64726853129995,True,COQUIMBO
51,CHIGUALOCO,-71.51802802505979,-31.75344719264476,True,COQUIMBO
52,SAN_PEDRO_LOS_VILOS,-71.5094012791498,-31.90905736453856,True,COQUIMBO
53,LAS_CONCHAS_LOS_VILOS,-71.51788392720717,-31.91241842148949,True,COQUIMBO
54,CASCABELES,-71.49951248205706,-31.97901337410976,True,COQUIMBO
55,TOTORALILLO_SUR,-71.51343972164248,-32.02563657520692,True,COQUIMBO
56,PICHIDANGUI,-71.52963575601872,-32.136061055814,True,COQUIMBO
57,LOS_MOLLES,-71.51231676155336,-32.23861032447277,True,VALPARAISO
58,PICHICUY,-71.46017410514861,-32.34542697938444,True,VALPARAISO
59,LIGUA,-71.41338064969172,-32.41454121991767,True,VALPARAISO
60,PAPUDO,-71.44977740590836,-32.50575248781614,True,VALPARAISO
61,ZAPALLAR,-71.46532828098402,-32.55307425155532,True,VALPARAISO
62,MAITENCILLO_VALPARAISO,-71.440023938827,-32.64890899708022,True,VALPARAISO
63,HORCON,-71.48992549730892,-32.70898341079105,True,VALPARAISO
64,VENTANAS,-71.49070775230695,-32.74092087541433,True,VALPARAISO
65,QUINTERO,-71.52609304204873,-32.78179444444444,True,VALPARAISO
66,LONCURA,-71.50815764087383,-32.78251398420309,True,VALPARAISO
67,PAPAGALLO,-71.53637458034926,-32.78408503896819,True,VALPARAISO
68,SAN_PEDRO_DE_CONCON,-71.51823351874923,-32.91884117093211,True,VALPARAISO
69,HIGUERILLAS,-71.53867776788445,-32.92998813395543,True,VALPARAISO
70,MONTEMAR,-71.54973575351951,-32.95670503533346,True,VALPARAISO
71,VALPARAISO_EL_MEMBRILLO,-71.63254311998418,-33.0221503621375,True,VALPARAISO
72,VALPARAISO_PORTALES,-71.59005921811544,-33.03114588213145,True,VALPARAISO
73,LAGUNA_VERDE,-71.673720735397,-33.10244290680615,True,VALPARAISO
74,QUINTAY,-71.69947225196583,-33.19378214494291,True,VALPARAISO
75,TUNQUEN,-71.6617,-33.289524,True,VALPARAISO
76,ALGARROBO,-71.67306986616774,-33.36358777442481,True,VALPARAISO
77,EL_QUISCO,-71.69803819587887,-33.39434118697895,True,VALPARAISO
78,EL_TABO,-71.668197,-33.460137,True,VALPARAISO
79,LAS_CRUCES,-71.62897774929702,-33.50022799598304,True,VALPARAISO
80,CARTAGENA,-71.61422133168102,-33.55116150692668,True,VALPARAISO
81,SAN_ANTONIO,-71.61537216476202,-33.58152098341771,True,VALPARAISO
82,SANTO_DOMINGO,-71.62249509773207,-33.6192209832673,True,VALPARAISO
